[{"name": "Aleppo", "location": {"lon": 37.16117, "lat": 36.20124}}, {"name": "Saint Petersburg", "location": {"lon": 30.31413, "lat": 59.93863}}, {"name": "Semarang", "location": {"lon": 110.42083, "lat": -6.99306}}, {"name": "Vadodara", "location": {"lon": 73.20812, "lat": 22.29941}}, {"name": "Prayagraj", "location": {"lon": 81.84322, "lat": 25.44478}}, {"name": "Sydney", "location": {"lon": 151.20732, "lat": -33.86785}}, {"name": "Khulna", "location": {"lon": 89.56439, "lat": 22.80979}}, {"name": "Johannesburg", "location": {"lon": 28.04363, "lat": -26.20227}}, {"name": "Anyang", "location": {"lon": 114.38278, "lat": 36.096}}, {"name": "Nanyang", "location": {"lon": 112.53278, "lat": 32.99472}}, {"name": "Jinhua", "location": {"lon": 119.64421, "lat": 29.10678}}, {"name": "Yangjiang", "location": {"lon": 111.96272, "lat": 21.85563}}, {"name": "Dongguan", "location": {"lon": 113.74866, "lat": 23.01797}}, {"name": "Beijing", "location": {"lon": 116.39723, "lat": 39.9075}}, {"name": "Paris", "location": {"lon": 2.3488, "lat": 48.85341}}, {"name": "Manhattan", "location": {"lon": -73.96625, "lat": 40.78343}}, {"name": "Brisbane", "location": {"lon": 153.02809, "lat": -27.46794}}, {"name": "Kakamega", "location": {"lon": 34.75229, "lat": 0.28422}}, {"name": "Volgograd", "location": {"lon": 44.50183, "lat": 48.71939}}, {"name": "Xuchang", "location": {"lon": 113.86299, "lat": 34.03189}}, {"name": "Xi\u2019an", "location": {"lon": 108.92861, "lat": 34.25833}}, {"name": "Changde", "location": {"lon": 111.69844, "lat": 29.03205}}, {"name": "Shaoguan", "location": {"lon": 113.58333, "lat": 24.8}}, {"name": "Jilin", "location": {"lon": 126.56028, "lat": 43.85083}}, {"name": "Guarulhos", "location": {"lon": -46.53333, "lat": -23.46278}}, {"name": "Manaus", "location": {"lon": -60.025, "lat": -3.10194}}, {"name": "Edmonton", "location": {"lon": -113.46871, "lat": 53.55014}}, {"name": "Santiago de los Caballeros", "location": {"lon": -70.69703, "lat": 19.4517}}, {"name": "Algiers", "location": {"lon": 3.08746, "lat": 36.73225}}, {"name": "Alexandria", "location": {"lon": 29.91582, "lat": 31.20176}}, {"name": "Kananga", "location": {"lon": 22.41659, "lat": -5.89624}}, {"name": "Kowloon", "location": {"lon": 114.18333, "lat": 22.31667}}, {"name": "Nashik", "location": {"lon": 73.79096, "lat": 19.99727}}, {"name": "Lucknow", "location": {"lon": 80.92313, "lat": 26.83928}}, {"name": "Daejeon", "location": {"lon": 127.38493, "lat": 36.34913}}, {"name": "M\u00e9rida", "location": {"lon": -89.61696, "lat": 20.97537}}, {"name": "Medan", "location": {"lon": 98.66667, "lat": 3.58333}}, {"name": "Bengaluru", "location": {"lon": 77.59369, "lat": 12.97194}}, {"name": "Monterrey", "location": {"lon": -100.31847, "lat": 25.67507}}, {"name": "Adana", "location": {"lon": 35.32531, "lat": 36.98615}}, {"name": "Taipei", "location": {"lon": 121.53185, "lat": 25.04776}}, {"name": "Voronezh", "location": {"lon": 39.1843, "lat": 51.67204}}, {"name": "Namangan", "location": {"lon": 71.67257, "lat": 40.9983}}, {"name": "Yaound\u00e9", "location": {"lon": 11.51667, "lat": 3.86667}}, {"name": "Sanya", "location": {"lon": 109.50947, "lat": 18.25435}}, {"name": "Qingyuan", "location": {"lon": 113.03333, "lat": 23.7}}, {"name": "Haikou", "location": {"lon": 110.34651, "lat": 20.03421}}, {"name": "Foshan", "location": {"lon": 113.13148, "lat": 23.02677}}, {"name": "Ordos", "location": {"lon": 109.78157, "lat": 39.6086}}, {"name": "Santo Domingo", "location": {"lon": -69.89232, "lat": 18.47186}}, {"name": "Sharjah", "location": {"lon": 55.41206, "lat": 25.33737}}, {"name": "Perth", "location": {"lon": 115.8614, "lat": -31.95224}}, {"name": "Copenhagen", "location": {"lon": 12.56553, "lat": 55.67594}}, {"name": "Tangerang", "location": {"lon": 106.63, "lat": -6.17806}}, {"name": "Jepara", "location": {"lon": 110.671, "lat": -6.5924}}, {"name": "Varanasi", "location": {"lon": 83.01041, "lat": 25.31668}}, {"name": "Bhop\u0101l", "location": {"lon": 77.40289, "lat": 23.25469}}, {"name": "Agra", "location": {"lon": 78.01667, "lat": 27.18333}}, {"name": "Kirkuk", "location": {"lon": 44.39222, "lat": 35.46806}}, {"name": "Al Maw\u015fil al Jad\u012bdah", "location": {"lon": 43.10555, "lat": 36.33271}}, {"name": "Xinyang", "location": {"lon": 114.06556, "lat": 32.12278}}, {"name": "Weinan", "location": {"lon": 109.50891, "lat": 34.50355}}, {"name": "Shijiazhuang", "location": {"lon": 114.47861, "lat": 38.04139}}, {"name": "Hengyang", "location": {"lon": 112.61888, "lat": 26.88946}}, {"name": "Changchun", "location": {"lon": 125.32278, "lat": 43.88}}, {"name": "Yangon", "location": {"lon": 96.15611, "lat": 16.80528}}, {"name": "Maiduguri", "location": {"lon": 13.15712, "lat": 11.84692}}, {"name": "Kathmandu", "location": {"lon": 85.3206, "lat": 27.70169}}, {"name": "Damascus", "location": {"lon": 36.29128, "lat": 33.5102}}, {"name": "Port Elizabeth", "location": {"lon": 25.61494, "lat": -33.96109}}, {"name": "Cape Town", "location": {"lon": 18.42322, "lat": -33.92584}}, {"name": "Rostov-na-Donu", "location": {"lon": 39.72328, "lat": 47.23135}}, {"name": "Yinchuan", "location": {"lon": 106.27306, "lat": 38.46806}}, {"name": "Zhangjiagang", "location": {"lon": 120.53889, "lat": 31.865}}, {"name": "Shanghai", "location": {"lon": 121.45806, "lat": 31.22222}}, {"name": "Jieyang", "location": {"lon": 116.36581, "lat": 23.5418}}, {"name": "Longyan", "location": {"lon": 117.01775, "lat": 25.07485}}, {"name": "Rome", "location": {"lon": 12.51133, "lat": 41.89193}}, {"name": "Budapest", "location": {"lon": 19.04045, "lat": 47.49835}}, {"name": "Teni", "location": {"lon": 77.47772, "lat": 10.01115}}, {"name": "Chennai", "location": {"lon": 80.27847, "lat": 13.08784}}, {"name": "Tehran", "location": {"lon": 51.42151, "lat": 35.69439}}, {"name": "Guadalajara", "location": {"lon": -103.39182, "lat": 20.66682}}, {"name": "Onitsha", "location": {"lon": 6.78569, "lat": 6.14978}}, {"name": "Kyiv", "location": {"lon": 30.5238, "lat": 50.45466}}, {"name": "Kobe", "location": {"lon": 135.183, "lat": 34.6913}}, {"name": "Phnom Penh", "location": {"lon": 104.91601, "lat": 11.56245}}, {"name": "Nouakchott", "location": {"lon": -15.9785, "lat": 18.08581}}, {"name": "Puebla", "location": {"lon": -98.20346, "lat": 19.03793}}, {"name": "Daegu", "location": {"lon": 128.59111, "lat": 35.87028}}, {"name": "Ciudad Nezahualcoyotl", "location": {"lon": -99.01483, "lat": 19.40061}}, {"name": "Mexicali", "location": {"lon": -115.45446, "lat": 32.62781}}, {"name": "Ciudad Ju\u00e1rez", "location": {"lon": -106.46084, "lat": 31.72024}}, {"name": "Maputo", "location": {"lon": 32.58322, "lat": -25.96553}}, {"name": "Callao", "location": {"lon": -77.11814, "lat": -12.05659}}, {"name": "Bandung", "location": {"lon": 107.60694, "lat": -6.92222}}, {"name": "Ranchi", "location": {"lon": 85.3094, "lat": 23.34316}}, {"name": "Hyder\u0101b\u0101d", "location": {"lon": 78.45636, "lat": 17.38405}}, {"name": "Tashkent", "location": {"lon": 69.21627, "lat": 41.26465}}, {"name": "Hanoi", "location": {"lon": 105.84117, "lat": 21.0245}}, {"name": "Brooklyn", "location": {"lon": -73.94958, "lat": 40.6501}}, {"name": "Istanbul", "location": {"lon": 28.94966, "lat": 41.01384}}, {"name": "Taichung", "location": {"lon": 120.6839, "lat": 24.1469}}, {"name": "Tangshan", "location": {"lon": 118.18333, "lat": 39.63333}}, {"name": "Neijiang", "location": {"lon": 105.06216, "lat": 29.58354}}, {"name": "Yiwu", "location": {"lon": 120.07676, "lat": 29.31506}}, {"name": "Baotou", "location": {"lon": 109.84389, "lat": 40.6516}}, {"name": "Xuzhou", "location": {"lon": 117.28386, "lat": 34.20442}}, {"name": "Luanda", "location": {"lon": 13.23432, "lat": -8.83682}}, {"name": "Kinshasa", "location": {"lon": 15.31357, "lat": -4.32758}}, {"name": "Rabat", "location": {"lon": -6.83255, "lat": 34.01325}}, {"name": "Bekasi", "location": {"lon": 106.9896, "lat": -6.2349}}, {"name": "Dombivli", "location": {"lon": 73.08333, "lat": 19.21667}}, {"name": "Kallakurichi", "location": {"lon": 78.95925, "lat": 11.73379}}, {"name": "Mwanza", "location": {"lon": 32.9, "lat": -2.51667}}, {"name": "\u00dcr\u00fcmqi", "location": {"lon": 87.60046, "lat": 43.80096}}, {"name": "Zhuhai", "location": {"lon": 113.56778, "lat": 22.27694}}, {"name": "Qingdao", "location": {"lon": 120.38042, "lat": 36.06488}}, {"name": "Sofia", "location": {"lon": 23.32415, "lat": 42.69751}}, {"name": "Buenos Aires", "location": {"lon": -58.37723, "lat": -34.61315}}, {"name": "Berlin", "location": {"lon": 13.41053, "lat": 52.52437}}, {"name": "Guayaquil", "location": {"lon": -79.88621, "lat": -2.19616}}, {"name": "Pimpri", "location": {"lon": 73.80696, "lat": 18.62292}}, {"name": "Malingao", "location": {"lon": 124.475, "lat": 7.16083}}, {"name": "Hyderabad", "location": {"lon": 68.37718, "lat": 25.39689}}, {"name": "Warsaw", "location": {"lon": 21.01178, "lat": 52.22977}}, {"name": "Bursa", "location": {"lon": 29.06013, "lat": 40.19559}}, {"name": "Dar es Salaam", "location": {"lon": 39.26951, "lat": -6.82349}}, {"name": "Novosibirsk", "location": {"lon": 82.9346, "lat": 55.0415}}, {"name": "Yulin", "location": {"lon": 110.14686, "lat": 22.6305}}, {"name": "Nanjing", "location": {"lon": 118.77778, "lat": 32.06167}}, {"name": "Kaifeng", "location": {"lon": 114.30742, "lat": 34.7986}}, {"name": "Heze", "location": {"lon": 115.47358, "lat": 35.23929}}, {"name": "Zhongshan", "location": {"lon": 113.37912, "lat": 22.52306}}, {"name": "La Paz", "location": {"lon": -68.15, "lat": -16.5}}, {"name": "Calgary", "location": {"lon": -114.08529, "lat": 51.05011}}, {"name": "Toronto", "location": {"lon": -79.39864, "lat": 43.70643}}, {"name": "Adelaide", "location": {"lon": 138.59863, "lat": -34.92866}}, {"name": "Kisangani", "location": {"lon": 25.19099, "lat": 0.51528}}, {"name": "Chattogram", "location": {"lon": 91.83168, "lat": 22.3384}}, {"name": "Sendai", "location": {"lon": 140.86667, "lat": 38.26667}}, {"name": "Almaty", "location": {"lon": 76.91667, "lat": 43.25}}, {"name": "H\u0101ora", "location": {"lon": 88.31857, "lat": 22.57688}}, {"name": "Navi Mumbai", "location": {"lon": 73.01582, "lat": 19.03681}}, {"name": "Kawasaki", "location": {"lon": 139.71722, "lat": 35.52056}}, {"name": "Philadelphia", "location": {"lon": -75.16362, "lat": 39.95238}}, {"name": "Bucharest", "location": {"lon": 26.10626, "lat": 44.43225}}, {"name": "Antalya", "location": {"lon": 30.69556, "lat": 36.90812}}, {"name": "Gwangju", "location": {"lon": 126.91556, "lat": 35.15472}}, {"name": "Casablanca", "location": {"lon": -7.61138, "lat": 33.58831}}, {"name": "Bogor", "location": {"lon": 106.78917, "lat": -6.59444}}, {"name": "Jabalpur", "location": {"lon": 79.95006, "lat": 23.16697}}, {"name": "Shangqiu", "location": {"lon": 115.65, "lat": 34.45}}, {"name": "Xinxiang", "location": {"lon": 113.80151, "lat": 35.19033}}, {"name": "Wuhu", "location": {"lon": 118.42947, "lat": 31.35259}}, {"name": "Wuhan", "location": {"lon": 114.26667, "lat": 30.58333}}, {"name": "Huai'an", "location": {"lon": 119.01917, "lat": 33.58861}}, {"name": "Nanchang", "location": {"lon": 115.85306, "lat": 28.68396}}, {"name": "Liuzhou", "location": {"lon": 109.40698, "lat": 24.32405}}, {"name": "Bijie", "location": {"lon": 105.28627, "lat": 27.30193}}, {"name": "Macei\u00f3", "location": {"lon": -35.73528, "lat": -9.66583}}, {"name": "London", "location": {"lon": -0.12574, "lat": 51.50853}}, {"name": "Accra", "location": {"lon": -0.1969, "lat": 5.55602}}, {"name": "Fortaleza", "location": {"lon": -38.54306, "lat": -3.71722}}, {"name": "Depok", "location": {"lon": 106.81861, "lat": -6.4}}, {"name": "Madurai", "location": {"lon": 78.11953, "lat": 9.919}}, {"name": "Karaj", "location": {"lon": 50.99155, "lat": 35.83266}}, {"name": "Port Harcourt", "location": {"lon": 7.0134, "lat": 4.77742}}, {"name": "Faisalabad", "location": {"lon": 73.08969, "lat": 31.41554}}, {"name": "Kyoto", "location": {"lon": 135.75385, "lat": 35.02107}}, {"name": "Jinjiang", "location": {"lon": 118.57415, "lat": 24.81978}}, {"name": "Puyang", "location": {"lon": 119.88872, "lat": 29.45679}}, {"name": "Huaibei", "location": {"lon": 116.79167, "lat": 33.97444}}, {"name": "Taizhou", "location": {"lon": 121.43312, "lat": 28.66266}}, {"name": "Jinzhong", "location": {"lon": 112.75471, "lat": 37.68403}}, {"name": "Dakar", "location": {"lon": -17.44406, "lat": 14.6937}}, {"name": "Chicago", "location": {"lon": -87.65005, "lat": 41.85003}}, {"name": "Kampala", "location": {"lon": 32.58219, "lat": 0.31628}}, {"name": "Yongzhou", "location": {"lon": 111.61306, "lat": 26.42389}}, {"name": "Quanzhou", "location": {"lon": 118.58583, "lat": 24.91389}}, {"name": "Nanchong", "location": {"lon": 106.08473, "lat": 30.79508}}, {"name": "Lu\u2019an", "location": {"lon": 116.51688, "lat": 31.73561}}, {"name": "Jiaxing", "location": {"lon": 120.75, "lat": 30.7522}}, {"name": "Fuyang", "location": {"lon": 115.81667, "lat": 32.9}}, {"name": "Baoji", "location": {"lon": 107.23705, "lat": 34.36775}}, {"name": "Baku", "location": {"lon": 49.89201, "lat": 40.37767}}, {"name": "Abidjan", "location": {"lon": -4.00167, "lat": 5.35444}}, {"name": "Mombasa", "location": {"lon": 39.66359, "lat": -4.05466}}, {"name": "Ra\u2019s Bayr\u016bt", "location": {"lon": 35.48333, "lat": 33.9}}, {"name": "Yokohama", "location": {"lon": 139.65, "lat": 35.43333}}, {"name": "Tokyo", "location": {"lon": 139.69171, "lat": 35.6895}}, {"name": "Addis Ababa", "location": {"lon": 38.74689, "lat": 9.02497}}, {"name": "Tiruchirappalli", "location": {"lon": 78.69651, "lat": 10.8155}}, {"name": "Nowrangapur", "location": {"lon": 82.54826, "lat": 19.23114}}, {"name": "Gorakhpur", "location": {"lon": 75.67206, "lat": 29.44768}}, {"name": "Sambhaji Nagar", "location": {"lon": 75.34226, "lat": 19.87757}}, {"name": "Budta", "location": {"lon": 124.43972, "lat": 7.20417}}, {"name": "Maracay", "location": {"lon": -67.59113, "lat": 10.23535}}, {"name": "Barquisimeto", "location": {"lon": -69.35703, "lat": 10.0647}}, {"name": "Houston", "location": {"lon": -95.36327, "lat": 29.76328}}, {"name": "Shiyan", "location": {"lon": 110.77806, "lat": 32.6475}}, {"name": "Jining", "location": {"lon": 116.58139, "lat": 35.405}}, {"name": "Huzhou", "location": {"lon": 120.0933, "lat": 30.8703}}, {"name": "Chengdu", "location": {"lon": 104.06667, "lat": 30.66667}}, {"name": "Amman", "location": {"lon": 35.94503, "lat": 31.95522}}, {"name": "Kaly\u0101n", "location": {"lon": 73.13554, "lat": 19.2437}}, {"name": "Jaipur", "location": {"lon": 75.78781, "lat": 26.91962}}, {"name": "Shiraz", "location": {"lon": 52.53113, "lat": 29.61031}}, {"name": "Fukuoka", "location": {"lon": 130.41667, "lat": 33.6}}, {"name": "Goyang-si", "location": {"lon": 126.835, "lat": 37.65639}}, {"name": "Monrovia", "location": {"lon": -10.7969, "lat": 6.30054}}, {"name": "Antananarivo", "location": {"lon": 47.53613, "lat": -18.91368}}, {"name": "Krasnoyarsk", "location": {"lon": 92.86717, "lat": 56.01839}}, {"name": "Conakry", "location": {"lon": -13.67729, "lat": 9.53795}}, {"name": "Montevideo", "location": {"lon": -56.18816, "lat": -34.90328}}, {"name": "Valencia", "location": {"lon": -68.00765, "lat": 10.16202}}, {"name": "Kharkiv", "location": {"lon": 36.25272, "lat": 49.98081}}, {"name": "Arequipa", "location": {"lon": -71.535, "lat": -16.39889}}, {"name": "Beirut", "location": {"lon": 35.50157, "lat": 33.89332}}, {"name": "Lilongwe", "location": {"lon": 33.78725, "lat": -13.96692}}, {"name": "Ecatepec de Morelos", "location": {"lon": -99.06064, "lat": 19.60492}}, {"name": "Isfahan", "location": {"lon": 51.67462, "lat": 32.65246}}, {"name": "Nagoya", "location": {"lon": 136.90641, "lat": 35.18147}}, {"name": "Multan", "location": {"lon": 71.47824, "lat": 30.19679}}, {"name": "Xiamen", "location": {"lon": 118.08187, "lat": 24.47979}}, {"name": "Shenzhen", "location": {"lon": 114.0683, "lat": 22.54554}}, {"name": "Maoming", "location": {"lon": 110.91364, "lat": 21.66625}}, {"name": "Changsha", "location": {"lon": 112.97087, "lat": 28.19874}}, {"name": "Brussels", "location": {"lon": 4.34878, "lat": 50.85045}}, {"name": "Porto Alegre", "location": {"lon": -51.23019, "lat": -30.03283}}, {"name": "Minsk", "location": {"lon": 27.56667, "lat": 53.9}}, {"name": "Lubumbashi", "location": {"lon": 27.47938, "lat": -11.66089}}, {"name": "Comilla", "location": {"lon": 91.18503, "lat": 23.46186}}, {"name": "Fes", "location": {"lon": -5.00028, "lat": 34.03313}}, {"name": "Mexico City", "location": {"lon": -99.12766, "lat": 19.42847}}, {"name": "Le\u00f3n de los Aldama", "location": {"lon": -101.67374, "lat": 21.12908}}, {"name": "Lima", "location": {"lon": -77.02824, "lat": -12.04318}}, {"name": "Port-au-Prince", "location": {"lon": -72.33881, "lat": 18.54349}}, {"name": "Surat", "location": {"lon": 72.83023, "lat": 21.19594}}, {"name": "Yichun", "location": {"lon": 114.4, "lat": 27.83333}}, {"name": "Taiyuan", "location": {"lon": 112.56028, "lat": 37.86944}}, {"name": "Guankou", "location": {"lon": 113.62709, "lat": 28.15861}}, {"name": "Jinan", "location": {"lon": 116.99722, "lat": 36.66833}}, {"name": "Guigang", "location": {"lon": 109.59472, "lat": 23.11603}}, {"name": "Dalian", "location": {"lon": 121.60222, "lat": 38.91222}}, {"name": "Chongqing", "location": {"lon": 106.55771, "lat": 29.56026}}, {"name": "Bozhou", "location": {"lon": 115.77028, "lat": 33.87722}}, {"name": "Bogot\u00e1", "location": {"lon": -74.08175, "lat": 4.60971}}, {"name": "Quito", "location": {"lon": -78.52495, "lat": -0.22985}}, {"name": "Shubr\u0101 al Khaymah", "location": {"lon": 31.25053, "lat": 30.12511}}, {"name": "Cairo", "location": {"lon": 31.24967, "lat": 30.06263}}, {"name": "Birmingham", "location": {"lon": -1.89983, "lat": 52.48142}}, {"name": "Quezon City", "location": {"lon": 121.0509, "lat": 14.6488}}, {"name": "Chelyabinsk", "location": {"lon": 61.42915, "lat": 55.15402}}, {"name": "New York City", "location": {"lon": -74.00597, "lat": 40.71427}}, {"name": "Bulawayo", "location": {"lon": 28.58333, "lat": -20.15}}, {"name": "Pyongyang", "location": {"lon": 125.75432, "lat": 39.03385}}, {"name": "Shymkent", "location": {"lon": 69.6, "lat": 42.3}}, {"name": "Yunfu", "location": {"lon": 112.03809, "lat": 22.92787}}, {"name": "Kano", "location": {"lon": 8.51672, "lat": 12.00012}}, {"name": "Bandar Lampung", "location": {"lon": 105.26111, "lat": -5.42917}}, {"name": "Baghdad", "location": {"lon": 44.40088, "lat": 33.34058}}, {"name": "Al Ba\u015frah al Qad\u012bmah", "location": {"lon": 47.81507, "lat": 30.50316}}, {"name": "Abobo", "location": {"lon": -4.0159, "lat": 5.41613}}, {"name": "N'Djamena", "location": {"lon": 15.0444, "lat": 12.10672}}, {"name": "Kayseri", "location": {"lon": 35.48528, "lat": 38.73222}}, {"name": "Harare", "location": {"lon": 31.05337, "lat": -17.82772}}, {"name": "Samara", "location": {"lon": 50.15, "lat": 53.20007}}, {"name": "Kabul", "location": {"lon": 69.17233, "lat": 34.52813}}, {"name": "Mosul", "location": {"lon": 43.11889, "lat": 36.335}}, {"name": "Basrah", "location": {"lon": 47.7804, "lat": 30.50852}}, {"name": "Busan", "location": {"lon": 129.03004, "lat": 35.10168}}, {"name": "Seongnam-si", "location": {"lon": 127.13778, "lat": 37.43861}}, {"name": "San Antonio", "location": {"lon": -98.49363, "lat": 29.42412}}, {"name": "Linyi", "location": {"lon": 118.34278, "lat": 35.06306}}, {"name": "Hohhot", "location": {"lon": 111.65222, "lat": 40.81056}}, {"name": "Bel\u00e9m", "location": {"lon": -48.50444, "lat": -1.45583}}, {"name": "Dallas", "location": {"lon": -96.80667, "lat": 32.78306}}, {"name": "Seoul", "location": {"lon": 126.9784, "lat": 37.566}}, {"name": "Camayenne", "location": {"lon": -13.68778, "lat": 9.535}}, {"name": "Meerut", "location": {"lon": 77.70636, "lat": 28.98002}}, {"name": "Douala", "location": {"lon": 9.70428, "lat": 4.04827}}, {"name": "Zibo", "location": {"lon": 118.06333, "lat": 36.79056}}, {"name": "Tianshui", "location": {"lon": 105.74238, "lat": 34.57952}}, {"name": "Baoding", "location": {"lon": 115.46246, "lat": 38.87288}}, {"name": "Cali", "location": {"lon": -76.5225, "lat": 3.43722}}, {"name": "Dubai", "location": {"lon": 55.30927, "lat": 25.07725}}, {"name": "Matola", "location": {"lon": 32.45889, "lat": -25.96222}}, {"name": "Riyadh", "location": {"lon": 46.72185, "lat": 24.68773}}, {"name": "Manila", "location": {"lon": 120.9822, "lat": 14.6042}}, {"name": "Lahore", "location": {"lon": 74.35071, "lat": 31.558}}, {"name": "Yekaterinburg", "location": {"lon": 60.6122, "lat": 56.8519}}, {"name": "Gaziantep", "location": {"lon": 37.3825, "lat": 37.05944}}, {"name": "Dammam", "location": {"lon": 50.10326, "lat": 26.43442}}, {"name": "Zhuzhou", "location": {"lon": 113.15, "lat": 27.83333}}, {"name": "Yancheng", "location": {"lon": 120.1573, "lat": 33.3575}}, {"name": "Xining", "location": {"lon": 101.75739, "lat": 36.62554}}, {"name": "Shantou", "location": {"lon": 116.67876, "lat": 23.35489}}, {"name": "Putian", "location": {"lon": 119.01028, "lat": 25.43944}}, {"name": "Lanzhou", "location": {"lon": 103.83987, "lat": 36.05701}}, {"name": "Yiyang", "location": {"lon": 112.32833, "lat": 28.58917}}, {"name": "Suzhou", "location": {"lon": 120.59538, "lat": 31.30408}}, {"name": "Shenyang", "location": {"lon": 123.43278, "lat": 41.79222}}, {"name": "Daqing", "location": {"lon": 125.0, "lat": 46.58333}}, {"name": "Bras\u00edlia", "location": {"lon": -47.92972, "lat": -15.77972}}, {"name": "Hamburg", "location": {"lon": 9.99302, "lat": 53.55073}}, {"name": "Asunci\u00f3n", "location": {"lon": -57.647, "lat": -25.28646}}, {"name": "Makassar", "location": {"lon": 119.43194, "lat": -5.14861}}, {"name": "Dublin", "location": {"lon": -6.24889, "lat": 53.33306}}, {"name": "Nagpur", "location": {"lon": 79.08491, "lat": 21.14631}}, {"name": "Abu Dhabi", "location": {"lon": 54.39696, "lat": 24.45118}}, {"name": "Mogadishu", "location": {"lon": 45.34375, "lat": 2.03711}}, {"name": "Los Angeles", "location": {"lon": -118.24368, "lat": 34.05223}}, {"name": "Sanaa", "location": {"lon": 44.20667, "lat": 15.35472}}, {"name": "Pretoria", "location": {"lon": 28.18783, "lat": -25.74486}}, {"name": "Luoyang", "location": {"lon": 112.45361, "lat": 34.68361}}, {"name": "Guiyang", "location": {"lon": 106.71667, "lat": 26.58333}}, {"name": "Ganzhou", "location": {"lon": 114.9326, "lat": 25.84664}}, {"name": "Lianyungang", "location": {"lon": 119.21556, "lat": 34.59845}}, {"name": "Madrid", "location": {"lon": -3.70256, "lat": 40.4165}}, {"name": "S\u00e3o Paulo", "location": {"lon": -46.63611, "lat": -23.5475}}, {"name": "Nairobi", "location": {"lon": 36.81667, "lat": -1.28333}}, {"name": "R\u0101jkot", "location": {"lon": 70.79322, "lat": 22.29161}}, {"name": "Pune", "location": {"lon": 73.85535, "lat": 18.51957}}, {"name": "Ludhi\u0101na", "location": {"lon": 75.85379, "lat": 30.91204}}, {"name": "Jamshedpur", "location": {"lon": 86.18545, "lat": 22.80278}}, {"name": "Erbil", "location": {"lon": 44.01193, "lat": 36.18333}}, {"name": "San Diego", "location": {"lon": -117.16472, "lat": 32.71571}}, {"name": "Medina", "location": {"lon": 39.61417, "lat": 24.46861}}, {"name": "Palembang", "location": {"lon": 104.7458, "lat": -2.91673}}, {"name": "\u0130zmir", "location": {"lon": 27.13838, "lat": 38.41273}}, {"name": "Yantai", "location": {"lon": 121.44081, "lat": 37.47649}}, {"name": "Weifang", "location": {"lon": 119.10194, "lat": 36.71}}, {"name": "Tianjin", "location": {"lon": 117.17667, "lat": 39.14222}}, {"name": "Suzhou", "location": {"lon": 116.97889, "lat": 33.63611}}, {"name": "Shaoxing", "location": {"lon": 120.57864, "lat": 30.00237}}, {"name": "Hangzhou", "location": {"lon": 120.16142, "lat": 30.29365}}, {"name": "Datong", "location": {"lon": 113.29139, "lat": 40.09361}}, {"name": "Anshan", "location": {"lon": 122.99, "lat": 41.12361}}, {"name": "Salvador", "location": {"lon": -38.49096, "lat": -12.97563}}, {"name": "Giza", "location": {"lon": 31.20861, "lat": 30.00944}}, {"name": "Kumasi", "location": {"lon": -1.62443, "lat": 6.68848}}, {"name": "Suwon", "location": {"lon": 127.00889, "lat": 37.29111}}, {"name": "Incheon", "location": {"lon": 126.70515, "lat": 37.45646}}, {"name": "Changwon", "location": {"lon": 128.68111, "lat": 35.22806}}, {"name": "Bamako", "location": {"lon": -8.0, "lat": 12.65}}, {"name": "Gustavo Adolfo Madero", "location": {"lon": -99.11075, "lat": 19.49392}}, {"name": "Kuala Lumpur", "location": {"lon": 101.68653, "lat": 3.1412}}, {"name": "Iztapalapa", "location": {"lon": -99.06224, "lat": 19.35529}}, {"name": "Peshawar", "location": {"lon": 71.57849, "lat": 34.008}}, {"name": "Belgrade", "location": {"lon": 20.46513, "lat": 44.80401}}, {"name": "Omsk", "location": {"lon": 73.36859, "lat": 54.99244}}, {"name": "Montr\u00e9al", "location": {"lon": -73.58781, "lat": 45.50884}}, {"name": "Yerevan", "location": {"lon": 44.51361, "lat": 40.18111}}, {"name": "Melbourne", "location": {"lon": 144.96332, "lat": -37.814}}, {"name": "Zhengzhou", "location": {"lon": 113.64861, "lat": 34.75778}}, {"name": "Xianyang", "location": {"lon": 108.70261, "lat": 34.33778}}, {"name": "Medell\u00edn", "location": {"lon": -75.56359, "lat": 6.25184}}, {"name": "Gh\u0101zi\u0101b\u0101d", "location": {"lon": 77.43915, "lat": 28.66535}}, {"name": "Ahmedabad", "location": {"lon": 72.58727, "lat": 23.02579}}, {"name": "Stockholm", "location": {"lon": 18.06871, "lat": 59.32938}}, {"name": "Ho Chi Minh City", "location": {"lon": 106.62965, "lat": 10.82302}}, {"name": "Soweto", "location": {"lon": 27.85849, "lat": -26.26781}}, {"name": "Yixing", "location": {"lon": 119.82016, "lat": 31.36059}}, {"name": "Qinzhou", "location": {"lon": 108.65061, "lat": 21.98247}}, {"name": "Wuwei", "location": {"lon": 102.63202, "lat": 37.92672}}, {"name": "Hefei", "location": {"lon": 117.28083, "lat": 31.86389}}, {"name": "Handan", "location": {"lon": 114.48764, "lat": 36.60999}}, {"name": "Jiangyin", "location": {"lon": 120.26302, "lat": 31.91102}}, {"name": "C\u00f3rdoba", "location": {"lon": -64.18105, "lat": -31.4135}}, {"name": "Pointe-Noire", "location": {"lon": 11.86352, "lat": -4.77609}}, {"name": "Brazzaville", "location": {"lon": 15.28318, "lat": -4.26613}}, {"name": "Caloocan City", "location": {"lon": 120.96788, "lat": 14.64953}}, {"name": "Singapore", "location": {"lon": 103.85007, "lat": 1.28967}}, {"name": "Konya", "location": {"lon": 32.48464, "lat": 37.87135}}, {"name": "Odesa", "location": {"lon": 30.74383, "lat": 46.48572}}, {"name": "Jeddah", "location": {"lon": 39.18624, "lat": 21.49012}}, {"name": "Barcelona", "location": {"lon": 2.15899, "lat": 41.38879}}, {"name": "South Tangerang", "location": {"lon": 106.71789, "lat": -6.28862}}, {"name": "Tirunelveli", "location": {"lon": 77.6838, "lat": 8.72742}}, {"name": "Th\u0101ne", "location": {"lon": 72.96355, "lat": 19.19704}}, {"name": "Najafgarh", "location": {"lon": 76.97982, "lat": 28.60922}}, {"name": "Delhi", "location": {"lon": 77.23149, "lat": 28.65195}}, {"name": "Mianyang", "location": {"lon": 104.68168, "lat": 31.46784}}, {"name": "Liaocheng", "location": {"lon": 116.00247, "lat": 36.45064}}, {"name": "Guilin", "location": {"lon": 110.29639, "lat": 25.28022}}, {"name": "Chaozhou", "location": {"lon": 116.62262, "lat": 23.65396}}, {"name": "Belo Horizonte", "location": {"lon": -43.93778, "lat": -19.92083}}, {"name": "Santiago de Quer\u00e9taro", "location": {"lon": -100.38806, "lat": 20.58806}}, {"name": "Niamey", "location": {"lon": 2.1098, "lat": 13.51366}}, {"name": "Sokoto", "location": {"lon": 5.24322, "lat": 13.06269}}, {"name": "Abuja", "location": {"lon": 7.49508, "lat": 9.05785}}, {"name": "Aba", "location": {"lon": 7.36667, "lat": 5.10658}}, {"name": "Maracaibo", "location": {"lon": -71.61245, "lat": 10.66663}}, {"name": "Lusaka", "location": {"lon": 28.28713, "lat": -15.40669}}, {"name": "Mumbai", "location": {"lon": 72.88261, "lat": 19.07283}}, {"name": "Recife", "location": {"lon": -34.88111, "lat": -8.05389}}, {"name": "Campinas", "location": {"lon": -47.06083, "lat": -22.90556}}, {"name": "Rangpur", "location": {"lon": 89.25166, "lat": 25.74664}}, {"name": "Zigong", "location": {"lon": 104.77689, "lat": 29.34162}}, {"name": "Kunshan", "location": {"lon": 120.95431, "lat": 31.37762}}, {"name": "Yichang", "location": {"lon": 111.28472, "lat": 30.71444}}, {"name": "Nantong", "location": {"lon": 120.87472, "lat": 32.03028}}, {"name": "Jingzhou", "location": {"lon": 112.19028, "lat": 30.35028}}, {"name": "Fuzhou", "location": {"lon": 116.33333, "lat": 27.95999}}, {"name": "Fushun", "location": {"lon": 123.94363, "lat": 41.88669}}, {"name": "Changshu", "location": {"lon": 120.74221, "lat": 31.64615}}, {"name": "Bayan Nur", "location": {"lon": 107.38599, "lat": 40.74143}}, {"name": "Barranquilla", "location": {"lon": -74.78132, "lat": 10.96854}}, {"name": "Prague", "location": {"lon": 14.42076, "lat": 50.08804}}, {"name": "Tbilisi", "location": {"lon": 44.83368, "lat": 41.69411}}, {"name": "Milan", "location": {"lon": 9.18951, "lat": 45.46427}}, {"name": "Tangier", "location": {"lon": -5.79975, "lat": 35.76727}}, {"name": "Jakarta", "location": {"lon": 106.84513, "lat": -6.21462}}, {"name": "Batam", "location": {"lon": 104.02491, "lat": 1.14937}}, {"name": "Tijuana", "location": {"lon": -117.00371, "lat": 32.5027}}, {"name": "Faridabad", "location": {"lon": 77.31316, "lat": 28.41124}}, {"name": "Kolkata", "location": {"lon": 88.36304, "lat": 22.56263}}, {"name": "Karbala", "location": {"lon": 44.02488, "lat": 32.61603}}, {"name": "Yangzhou", "location": {"lon": 119.43583, "lat": 32.39722}}, {"name": "Shangrao", "location": {"lon": 117.94287, "lat": 28.45179}}, {"name": "Xiangyang", "location": {"lon": 112.14479, "lat": 32.0422}}, {"name": "Qujing", "location": {"lon": 103.78333, "lat": 25.48333}}, {"name": "Nanning", "location": {"lon": 108.31667, "lat": 22.81667}}, {"name": "Huainan", "location": {"lon": 116.99694, "lat": 32.62639}}, {"name": "Liupanshui", "location": {"lon": 104.83333, "lat": 26.59444}}, {"name": "Havana", "location": {"lon": -82.38304, "lat": 23.13302}}, {"name": "Dhaka", "location": {"lon": 90.40744, "lat": 23.7104}}, {"name": "Jos", "location": {"lon": 8.89212, "lat": 9.92849}}, {"name": "Ibadan", "location": {"lon": 3.90591, "lat": 7.37756}}, {"name": "Ufa", "location": {"lon": 55.96779, "lat": 54.74306}}, {"name": "Mecca", "location": {"lon": 39.82563, "lat": 21.42664}}, {"name": "Rawalpindi", "location": {"lon": 73.0479, "lat": 33.59733}}, {"name": "Karachi", "location": {"lon": 67.0104, "lat": 24.8608}}, {"name": "Ankara", "location": {"lon": 32.85427, "lat": 39.91987}}, {"name": "The Bronx", "location": {"lon": -73.86641, "lat": 40.84985}}, {"name": "San Jose", "location": {"lon": -121.89496, "lat": 37.33939}}, {"name": "Rio de Janeiro", "location": {"lon": -43.18223, "lat": -22.90642}}, {"name": "Curitiba", "location": {"lon": -49.27306, "lat": -25.42778}}, {"name": "Vienna", "location": {"lon": 16.37208, "lat": 48.20849}}, {"name": "Surabaya", "location": {"lon": 112.75083, "lat": -7.24917}}, {"name": "Visakhapatnam", "location": {"lon": 83.20161, "lat": 17.68009}}, {"name": "Dhanbad", "location": {"lon": 86.42992, "lat": 23.79759}}, {"name": "Tabriz", "location": {"lon": 46.2919, "lat": 38.08}}, {"name": "Mashhad", "location": {"lon": 59.60567, "lat": 36.29807}}, {"name": "Tai\u2019an", "location": {"lon": 117.12, "lat": 36.18528}}, {"name": "Ningbo", "location": {"lon": 121.54945, "lat": 29.87819}}, {"name": "Jiujiang", "location": {"lon": 116.00206, "lat": 29.70475}}, {"name": "Jiangmen", "location": {"lon": 113.08333, "lat": 22.58333}}, {"name": "Huizhou", "location": {"lon": 114.41523, "lat": 23.11147}}, {"name": "Changzhi", "location": {"lon": 113.10528, "lat": 36.18389}}, {"name": "Fuzhou", "location": {"lon": 119.30611, "lat": 26.06139}}, {"name": "Dazhou", "location": {"lon": 107.46308, "lat": 31.2106}}, {"name": "Harbin", "location": {"lon": 126.65, "lat": 45.75}}, {"name": "Tripoli", "location": {"lon": 13.18733, "lat": 32.88743}}, {"name": "Zapopan", "location": {"lon": -103.38479, "lat": 20.72356}}, {"name": "Bangkok", "location": {"lon": 100.50144, "lat": 13.75398}}, {"name": "Kaohsiung", "location": {"lon": 120.31333, "lat": 22.61626}}, {"name": "Davao", "location": {"lon": 125.61278, "lat": 7.07306}}, {"name": "Saitama", "location": {"lon": 139.65657, "lat": 35.90807}}, {"name": "Mandalay", "location": {"lon": 96.08359, "lat": 21.97473}}, {"name": "Lagos", "location": {"lon": 3.39467, "lat": 6.45407}}, {"name": "Ilorin", "location": {"lon": 4.54214, "lat": 8.49664}}, {"name": "Zhaoqing", "location": {"lon": 112.46091, "lat": 23.04893}}, {"name": "Wuxi", "location": {"lon": 120.28857, "lat": 31.56887}}, {"name": "Taizhou", "location": {"lon": 119.90812, "lat": 32.49069}}, {"name": "Suqian", "location": {"lon": 118.29583, "lat": 33.94917}}, {"name": "Meishan", "location": {"lon": 103.83696, "lat": 30.04392}}, {"name": "Changzhou", "location": {"lon": 119.95401, "lat": 31.77359}}, {"name": "Hezhou", "location": {"lon": 111.56675, "lat": 24.40357}}, {"name": "Gujranwala", "location": {"lon": 74.18705, "lat": 32.15567}}, {"name": "Nizhniy Novgorod", "location": {"lon": 44.00205, "lat": 56.32867}}, {"name": "Moscow", "location": {"lon": 37.61556, "lat": 55.75222}}, {"name": "Omdurman", "location": {"lon": 32.47773, "lat": 15.64453}}, {"name": "Khartoum", "location": {"lon": 32.53241, "lat": 15.55177}}, {"name": "Queens", "location": {"lon": -73.83652, "lat": 40.68149}}, {"name": "Caracas", "location": {"lon": -66.87919, "lat": 10.48801}}, {"name": "Durban", "location": {"lon": 31.0292, "lat": -29.8579}}, {"name": "Ouagadougou", "location": {"lon": -1.53388, "lat": 12.36566}}, {"name": "Santa Cruz de la Sierra", "location": {"lon": -63.18117, "lat": -17.78629}}, {"name": "Coimbatore", "location": {"lon": 76.96612, "lat": 11.00555}}, {"name": "Amritsar", "location": {"lon": 74.87534, "lat": 31.62234}}, {"name": "Hiroshima", "location": {"lon": 132.45, "lat": 34.4}}, {"name": "Sapporo", "location": {"lon": 141.35, "lat": 43.06667}}, {"name": "Kaduna", "location": {"lon": 7.43879, "lat": 10.52641}}, {"name": "Benin City", "location": {"lon": 5.62575, "lat": 6.33815}}, {"name": "Hong Kong", "location": {"lon": 114.17469, "lat": 22.27832}}, {"name": "Pekanbaru", "location": {"lon": 101.44167, "lat": 0.51667}}, {"name": "Patna", "location": {"lon": 85.13563, "lat": 25.59408}}, {"name": "Kanpur", "location": {"lon": 80.34975, "lat": 26.46523}}, {"name": "Indore", "location": {"lon": 75.8333, "lat": 22.71792}}, {"name": "Osaka", "location": {"lon": 135.50107, "lat": 34.69379}}, {"name": "Phoenix", "location": {"lon": -112.07404, "lat": 33.44838}}, {"name": "Kazan", "location": {"lon": 49.12214, "lat": 55.78874}}, {"name": "Kigali", "location": {"lon": 30.05885, "lat": -1.94995}}, {"name": "Diyarbak\u0131r", "location": {"lon": 40.21721, "lat": 37.91363}}, {"name": "Santiago", "location": {"lon": -70.64827, "lat": -33.45694}}, {"name": "Zunyi", "location": {"lon": 106.90722, "lat": 27.68667}}, {"name": "Zhanjiang", "location": {"lon": 110.38749, "lat": 21.23391}}, {"name": "Wenzhou", "location": {"lon": 120.66682, "lat": 27.99942}}, {"name": "Luohe", "location": {"lon": 114.04272, "lat": 33.56394}}, {"name": "Kunming", "location": {"lon": 102.71833, "lat": 25.03889}}, {"name": "Cixi", "location": {"lon": 121.2457, "lat": 30.1764}}, {"name": "Hanzhong", "location": {"lon": 107.02214, "lat": 33.07507}}, {"name": "Guangzhou", "location": {"lon": 113.25, "lat": 23.11667}}, {"name": "Goi\u00e2nia", "location": {"lon": -49.25389, "lat": -16.67861}}, {"name": "Mbuji-Mayi", "location": {"lon": 23.58979, "lat": -6.13603}}, {"name": "Munich", "location": {"lon": 11.57549, "lat": 48.13743}}]